
$GPGGA,110936.60,5521.86737672,N,01025.88436989,E,4,09,1.5,15.218,M,44.043,M,0.6,0185*70
$GPGGA,110936.65,5521.86737184,N,01025.88436780,E,4,09,1.5,15.196,M,44.043,M,0.6,0185*79
$GPGGA,110936.70,5521.86737015,N,01025.88436386,E,4,09,1.5,15.188,M,44.043,M,0.7,0185*78
$GPGGA,110936.75,5521.86737287,N,01025.88436301,E,4,09,1.5,15.200,M,44.043,M,0.8,0185*77
$GPGGA,110936.80,5521.86738021,N,01025.88437184,E,4,08,2.6,15.229,M,44.043,M,0.8,0185*78
$GPGGA,110936.85,5521.86737670,N,01025.88436892,E,4,08,2.6,15.220,M,44.043,M,0.9,0185*77
$GPGGA,110936.90,5521.86738772,N,01025.88438257,E,4,08,2.6,15.238,M,44.043,M,0.9,0185*7B
$GPGGA,110936.95,5521.86739679,N,01025.88438976,E,4,08,2.6,15.241,M,44.043,M,0.9,0185*73
$GPGGA,110937.00,5521.86737862,N,01025.88437265,E,4,08,2.6,15.217,M,44.043,M,1.0,0185*79
$GPGGA,110937.05,5521.86737784,N,01025.88437076,E,4,08,2.6,15.225,M,44.043,M,1.0,0185*7A
$GPGGA,110937.10,5521.86737507,N,01025.88437388,E,4,08,2.6,15.203,M,44.043,M,1.1,0185*70
$GPGGA,110937.15,5521.86734551,N,01025.88436522,E,4,08,2.6,15.136,M,44.043,M,1.1,0185*77
$GPGGA,110937.20,5521.86733047,N,01025.88435829,E,4,08,2.6,15.094,M,44.043,M,1.2,0185*7B
$GPGGA,110937.25,5521.86739026,N,01025.88439951,E,4,08,2.6,15.273,M,44.043,M,1.3,0185*7B
$GPGGA,110937.30,5521.86738254,N,01025.88439192,E,4,08,2.6,15.220,M,44.043,M,1.3,0185*78
$GPGGA,110937.35,5521.86738041,N,01025.88438019,E,4,08,2.6,15.223,M,44.043,M,0.3,0185*7A
$GPGGA,110937.40,5521.86736303,N,01025.88435684,E,4,08,2.6,15.181,M,44.043,M,0.4,0185*70
$GPGGA,110937.45,5521.86733357,N,01025.88432200,E,4,08,2.6,15.084,M,44.043,M,0.4,0185*7A
$GPGGA,110937.50,5521.86733832,N,01025.88431837,E,4,08,2.6,15.134,M,44.043,M,0.5,0185*70
$GPGGA,110937.55,5521.86734660,N,01025.88433172,E,4,08,2.6,15.158,M,44.043,M,0.6,0185*78
$GPGGA,110937.60,5521.86734785,N,01025.88433743,E,4,08,2.6,15.152,M,44.043,M,0.6,0185*7A
$GPGGA,110937.65,5521.86735094,N,01025.88434116,E,4,08,2.6,15.143,M,44.043,M,0.6,0185*78
$GPGGA,110937.70,5521.86735797,N,01025.88435399,E,4,08,2.6,15.175,M,44.043,M,0.7,0185*78
$GPGGA,110937.75,5521.86736044,N,01025.88435594,E,4,08,2.6,15.182,M,44.043,M,0.8,0185*7B
$GPGGA,110937.80,5521.86732232,N,01025.88433099,E,4,08,2.6,15.076,M,44.043,M,0.8,0185*72
$GPGGA,110937.85,5521.86733828,N,01025.88433500,E,4,08,2.6,15.079,M,44.043,M,0.9,0185*7C
$GPGGA,110937.90,5521.86734319,N,01025.88433130,E,4,08,2.6,15.133,M,44.043,M,0.9,0185*7E
$GPGGA,110937.95,5521.86735190,N,01025.88434034,E,4,08,2.6,15.159,M,44.043,M,0.9,0185*77
$GPGGA,110938.00,5521.86734841,N,01025.88434420,E,4,08,2.6,15.129,M,44.043,M,1.0,0185*7E
$GPGGA,110938.05,5521.86734458,N,01025.88434099,E,4,08,2.6,15.125,M,44.043,M,1.0,0185*75
$GPGGA,110938.10,5521.86734701,N,01025.88433583,E,4,08,2.6,15.139,M,44.043,M,1.1,0185*7B
$GPGGA,110938.15,5521.86734927,N,01025.88434006,E,4,08,2.6,15.148,M,44.043,M,1.1,0185*7D
$GPGGA,110938.20,5521.86734979,N,01025.88434403,E,4,08,2.6,15.143,M,44.043,M,1.2,0185*79
$GPGGA,110938.25,5521.86734534,N,01025.88433716,E,4,08,2.6,15.138,M,44.043,M,1.3,0185*74
$GPGGA,110938.30,5521.86735744,N,01025.88434931,E,4,08,2.6,15.177,M,44.043,M,0.3,0185*72
$GPGGA,110938.35,5521.86735822,N,01025.88435038,E,4,08,2.6,15.174,M,44.043,M,0.3,0185*7A
$GPGGA,110938.40,5521.86735972,N,01025.88434937,E,4,08,2.6,15.180,M,44.043,M,0.4,0185*77
$GPGGA,110938.45,5521.86735713,N,01025.88435462,E,4,08,2.6,15.155,M,44.043,M,0.4,0185*7F
$GPGGA,110938.50,5521.86735404,N,01025.88435310,E,4,08,2.6,15.157,M,44.043,M,0.5,0185*7F
$GPGGA,110938.55,5521.86735690,N,01025.88435191,E,4,08,2.6,15.172,M,44.043,M,0.6,0185*7A
$GPGGA,110938.60,5521.86735941,N,01025.88434870,E,4,08,2.6,15.181,M,44.043,M,0.6,0185*74
$GPGGA,110938.65,5521.86735748,N,01025.88435232,E,4,08,2.6,15.147,M,44.043,M,0.6,0185*71
$GPGGA,110938.70,5521.86735606,N,01025.88435071,E,4,08,2.6,15.158,M,44.043,M,0.7,0185*74
$GPGGA,110938.75,5521.86735753,N,01025.88434794,E,4,08,2.6,15.181,M,44.043,M,0.8,0185*76
$GPGGA,110938.80,5521.86735857,N,01025.88434948,E,4,08,2.6,15.183,M,44.043,M,0.8,0185*7A
$GPGGA,110938.85,5521.86736021,N,01025.88434533,E,4,08,2.6,15.189,M,44.043,M,0.9,0185*7E
$GPGGA,110938.90,5521.86735934,N,01025.88434622,E,4,08,2.6,15.189,M,44.043,M,0.9,0185*77
$GPGGA,110938.95,5521.86735953,N,01025.88434917,E,4,08,2.6,15.195,M,44.043,M,0.9,0185*77
$GPGGA,110939.00,5521.86735894,N,01025.88435052,E,4,08,2.6,15.191,M,44.043,M,1.0,0185*75
$GPGGA,110939.05,5521.86735951,N,01025.88434815,E,4,08,2.6,15.193,M,44.043,M,1.0,0185*70
$GPGGA,110939.10,5521.86735966,N,01025.88434788,E,4,08,2.6,15.194,M,44.043,M,1.1,0185*7D
$GPGGA,110939.15,5521.86735825,N,01025.88435033,E,4,08,2.6,15.172,M,44.043,M,1.1,0185*70
$GPGGA,110939.20,5521.86735809,N,01025.88435194,E,4,08,2.6,15.175,M,44.043,M,1.2,0185*70
$GPGGA,110939.25,5521.86735870,N,01025.88434845,E,4,08,2.6,15.175,M,44.043,M,1.3,0185*7E
$GPGGA,110939.30,5521.86735728,N,01025.88434905,E,4,08,2.6,15.170,M,44.043,M,1.3,0185*78
$GPGGA,110939.35,5521.86736039,N,01025.88435312,E,4,08,2.6,15.186,M,44.043,M,0.3,0185*7C
$GPGGA,110939.40,5521.86736209,N,01025.88435154,E,4,08,2.6,15.197,M,44.043,M,0.4,0185*78
$GPGGA,110939.45,5521.86735964,N,01025.88435211,E,4,08,2.6,15.192,M,44.043,M,0.4,0185*79
$GPGGA,110939.50,5521.86736208,N,01025.88435180,E,4,08,2.6,15.188,M,44.043,M,0.5,0185*7E
$GPGGA,110939.55,5521.86736242,N,01025.88435034,E,4,08,2.6,15.195,M,44.043,M,0.6,0185*74
$GPGGA,110939.60,5521.86736332,N,01025.88435292,E,4,08,2.6,15.209,M,44.043,M,0.6,0185*7C
$GPGGA,110939.65,5521.86736463,N,01025.88435761,E,4,08,2.6,15.217,M,44.043,M,0.6,0185*7C
$GPGGA,110939.70,5521.86736414,N,01025.88435536,E,4,08,2.6,15.217,M,44.043,M,0.7,0185*79
$GPGGA,110939.75,5521.86736345,N,01025.88434946,E,4,08,2.6,15.222,M,44.043,M,0.8,0185*7C
$GPGGA,110939.80,5521.86736021,N,01025.88434778,E,4,08,2.6,15.207,M,44.043,M,0.8,0185*73
$GPGGA,110939.85,5521.86735879,N,01025.88434689,E,4,08,2.6,15.190,M,44.043,M,0.9,0185*73
$GPGGA,110939.90,5521.86736108,N,01025.88433745,E,4,08,2.6,15.167,M,44.043,M,0.9,0185*75
$GPGGA,110939.95,5521.86737359,N,01025.88434118,E,4,08,2.6,15.219,M,44.043,M,0.9,0185*74
$GPGGA,110940.00,5521.86736115,N,01025.88434544,E,4,08,2.6,15.229,M,44.043,M,1.0,0185*7B
$GPGGA,110940.05,5521.86737342,N,01025.88435694,E,4,08,2.6,15.250,M,44.043,M,1.0,0185*7E
$GPGGA,110940.10,5521.86735968,N,01025.88434140,E,4,08,2.6,15.196,M,44.043,M,1.1,0185*7D
$GPGGA,110940.15,5521.86735890,N,01025.88434695,E,4,08,2.6,15.185,M,44.043,M,1.1,0185*73
$GPGGA,110940.20,5521.86734161,N,01025.88431792,E,4,08,2.6,15.148,M,44.043,M,1.2,0185*72
$GPGGA,110940.25,5521.86734045,N,01025.88432422,E,4,08,2.6,15.146,M,44.043,M,1.3,0185*74
$GPGGA,110940.30,5521.86736336,N,01025.88435291,E,4,08,2.6,15.210,M,44.043,M,1.3,0185*7C
$GPGGA,110940.35,5521.86735318,N,01025.88434587,E,4,09,1.8,15.174,M,44.043,M,0.3,0185*7B
$GPGGA,110940.40,5521.86736299,N,01025.88435120,E,4,09,1.8,15.216,M,44.043,M,0.4,0185*7A
$GPGGA,110940.45,5521.86735573,N,01025.88434525,E,4,09,1.8,15.200,M,44.043,M,0.4,0185*78
$GPGGA,110940.50,5521.86735682,N,01025.88435347,E,4,09,1.8,15.197,M,44.043,M,0.5,0185*7E
$GPGGA,110940.55,5521.86735294,N,01025.88435821,E,4,09,1.8,15.173,M,44.043,M,0.6,0185*7A
$GPGGA,110940.60,5521.86737212,N,01025.88434206,E,4,09,1.8,15.232,M,44.043,M,0.6,0185*78
$GPGGA,110940.65,5521.86735546,N,01025.88431427,E,4,09,1.8,15.205,M,44.043,M,0.6,0185*7D
$GPGGA,110940.70,5521.86737144,N,01025.88433656,E,4,09,1.8,15.228,M,44.043,M,0.7,0185*75
$GPGGA,110940.75,5521.86736766,N,01025.88434018,E,4,09,1.8,15.238,M,44.043,M,0.8,0185*72
$GPGGA,110940.80,5521.86735619,N,01025.88432282,E,4,09,1.8,15.207,M,44.043,M,0.8,0185*79
$GPGGA,110940.85,5521.86737392,N,01025.88435228,E,4,09,1.8,15.248,M,44.043,M,0.9,0185*75
$GPGGA,110940.90,5521.86737341,N,01025.88435162,E,4,09,1.8,15.249,M,44.043,M,0.9,0185*73
$GPGGA,110940.95,5521.86736829,N,01025.88434942,E,4,09,1.8,15.232,M,44.043,M,0.9,0185*75
$GPGGA,110941.00,5521.86734568,N,01025.88431943,E,4,09,1.8,15.183,M,44.043,M,1.0,0185*77
$GPGGA,110941.05,5521.86734481,N,01025.88431792,E,4,09,1.8,15.174,M,44.043,M,1.0,0185*7E
$GPGGA,110941.10,5521.86734397,N,01025.88431356,E,4,09,1.8,15.168,M,44.043,M,1.1,0185*7A
$GPGGA,110941.15,5521.86734984,N,01025.88431974,E,4,09,1.8,15.179,M,44.043,M,1.1,0185*7D
$GPGGA,110941.20,5521.86735078,N,01025.88432246,E,4,09,1.8,15.187,M,44.043,M,1.2,0185*7B
$GPGGA,110941.25,5521.86734834,N,01025.88432063,E,4,09,1.8,15.185,M,44.043,M,1.3,0185*79
$GPGGA,110941.30,5521.86734711,N,01025.88431718,E,4,09,1.8,15.191,M,44.043,M,1.3,0185*78
$GPGGA,110941.35,5521.86738784,N,01025.88436684,E,4,09,1.8,15.247,M,44.043,M,0.3,0185*77
$GPGGA,110941.40,5521.86738586,N,01025.88436581,E,4,09,1.8,15.243,M,44.043,M,0.4,0185*70
$GPGGA,110941.45,5521.86738546,N,01025.88436760,E,4,09,1.8,15.250,M,44.043,M,0.4,0185*76
$GPGGA,110941.50,5521.86738193,N,01025.88436721,E,4,09,1.8,15.242,M,44.043,M,0.5,0185*79
$GPGGA,110941.55,5521.86738026,N,01025.88436571,E,4,09,1.8,15.227,M,44.043,M,0.6,0185*74
$GPGGA,110941.60,5521.86738024,N,01025.88436632,E,4,09,1.8,15.222,M,44.043,M,0.6,0185*71
$GPGGA,110941.65,5521.86738344,N,01025.88436727,E,4,09,1.8,15.229,M,44.043,M,0.6,0185*7F
$GPGGA,110941.70,5521.86737797,N,01025.88436764,E,4,09,1.8,15.217,M,44.043,M,0.7,0185*75
$GPGGA,110941.75,5521.86737678,N,01025.88436701,E,4,09,1.8,15.220,M,44.043,M,0.8,0185*78
$GPGGA,110941.80,5521.86737405,N,01025.88436408,E,4,09,1.8,15.211,M,44.043,M,0.8,0185*72
$GPGGA,110941.85,5521.86737750,N,01025.88436648,E,4,09,1.8,15.216,M,44.043,M,0.9,0185*74
$GPGGA,110941.90,5521.86737718,N,01025.88436503,E,4,09,1.8,15.221,M,44.043,M,0.9,0185*74
$GPGGA,110941.95,5521.86738547,N,01025.88436647,E,4,09,1.8,15.247,M,44.043,M,0.9,0185*75
$GPGGA,110942.00,5521.86738417,N,01025.88436649,E,4,09,1.8,15.241,M,44.043,M,1.0,0185*7E
$GPGGA,110942.05,5521.86738274,N,01025.88436683,E,4,09,1.8,15.249,M,44.043,M,1.0,0185*76
$GPGGA,110942.10,5521.86738329,N,01025.88436549,E,4,09,1.8,15.242,M,44.043,M,1.1,0185*74
$GPGGA,110942.15,5521.86738299,N,01025.88436508,E,4,09,1.8,15.246,M,44.043,M,1.1,0185*7A
$GPGGA,110942.20,5521.86738137,N,01025.88436396,E,4,09,1.8,15.236,M,44.043,M,1.2,0185*7E
$GPGGA,110942.25,5521.86738149,N,01025.88436306,E,4,09,1.8,15.242,M,44.043,M,1.3,0185*79
$GPGGA,110942.30,5521.86738311,N,01025.88436442,E,4,09,1.8,15.249,M,44.043,M,1.3,0185*7E
$GPGGA,110942.35,5521.86737823,N,01025.88436719,E,4,09,1.8,15.237,M,44.043,M,0.3,0185*7B
$GPGGA,110942.40,5521.86737822,N,01025.88436635,E,4,09,1.8,15.229,M,44.043,M,0.4,0185*7F
$GPGGA,110942.45,5521.86738440,N,01025.88437518,E,4,09,1.8,15.233,M,44.043,M,0.4,0185*7B
$GPGGA,110942.50,5521.86737663,N,01025.88436534,E,4,09,1.8,15.219,M,44.043,M,0.5,0185*75
$GPGGA,110942.55,5521.86737446,N,01025.88436838,E,4,09,1.8,15.218,M,44.043,M,0.6,0185*76
$GPGGA,110942.60,5521.86737569,N,01025.88436586,E,4,09,1.8,15.219,M,44.043,M,0.6,0185*75
$GPGGA,110942.65,5521.86737637,N,01025.88436242,E,4,09,1.8,15.219,M,44.043,M,0.6,0185*77
$GPGGA,110942.70,5521.86737730,N,01025.88436089,E,4,09,1.8,15.220,M,44.043,M,0.7,0185*7B
$GPGGA,110942.75,5521.86737634,N,01025.88436225,E,4,09,1.8,15.219,M,44.043,M,0.8,0185*7A
$GPGGA,110942.80,5521.86737585,N,01025.88436531,E,4,09,1.8,15.218,M,44.043,M,0.8,0185*7A
$GPGGA,110942.85,5521.86737682,N,01025.88436665,E,4,09,1.8,15.225,M,44.043,M,0.9,0185*76
$GPGGA,110942.90,5521.86737880,N,01025.88436648,E,4,09,1.8,15.225,M,44.043,M,0.9,0185*71
$GPGGA,110942.95,5521.86737798,N,01025.88436659,E,4,09,1.8,15.216,M,44.043,M,0.9,0185*72
$GPGGA,110943.00,5521.86737755,N,01025.88436631,E,4,09,1.8,15.223,M,44.043,M,1.0,0185*7E
$GPGGA,110943.05,5521.86737810,N,01025.88436435,E,4,09,1.8,15.228,M,44.043,M,1.0,0185*78
$GPGGA,110943.10,5521.86737907,N,01025.88436426,E,4,09,1.8,15.227,M,44.043,M,1.1,0185*77
$GPGGA,110943.15,5521.86737623,N,01025.88436273,E,4,09,1.8,15.223,M,44.043,M,1.1,0185*79
$GPGGA,110943.20,5521.86737758,N,01025.88436571,E,4,09,1.8,15.234,M,44.043,M,1.2,0185*72
$GPGGA,110943.25,5521.86737597,N,01025.88436300,E,4,09,1.8,15.225,M,44.043,M,1.3,0185*77
$GPGGA,110943.30,5521.86737598,N,01025.88436500,E,4,09,1.8,15.216,M,44.043,M,1.3,0185*7A
$GPGGA,110943.35,5521.86737504,N,01025.88436460,E,4,09,1.8,15.219,M,44.043,M,1.4,0185*75
$GPGGA,110943.40,5521.86737769,N,01025.88436920,E,4,09,1.8,15.231,M,44.043,M,0.4,0185*7C
$GPGGA,110943.45,5521.86737722,N,01025.88436865,E,4,09,1.8,15.220,M,44.043,M,0.4,0185*76
$GPGGA,110943.50,5521.86737683,N,01025.88436668,E,4,09,1.8,15.213,M,44.043,M,0.5,0185*7A
$GPGGA,110943.55,5521.86737694,N,01025.88436586,E,4,09,1.8,15.218,M,44.043,M,0.6,0185*72
$GPGGA,110943.60,5521.86737694,N,01025.88436858,E,4,09,1.8,15.220,M,44.043,M,0.6,0185*71
$GPGGA,110943.65,5521.86737541,N,01025.88436855,E,4,09,1.8,15.218,M,44.043,M,0.6,0185*79
$GPGGA,110943.70,5521.86737574,N,01025.88436859,E,4,09,1.8,15.229,M,44.043,M,0.7,0185*74
$GPGGA,110943.75,5521.86737776,N,01025.88436860,E,4,09,1.8,15.232,M,44.043,M,0.8,0185*7E
$GPGGA,110943.80,5521.86737445,N,01025.88436523,E,4,09,1.8,15.219,M,44.043,M,0.8,0185*74
$GPGGA,110943.85,5521.86737717,N,01025.88436641,E,4,09,1.8,15.226,M,44.043,M,0.9,0185*7F
$GPGGA,110943.90,5521.86737711,N,01025.88436791,E,4,09,1.8,15.225,M,44.043,M,0.9,0185*72
$GPGGA,110943.95,5521.86737730,N,01025.88436894,E,4,09,1.8,15.230,M,44.043,M,0.9,0185*7A
$GPGGA,110944.00,5521.86737798,N,01025.88436781,E,4,09,1.8,15.227,M,44.043,M,1.0,0185*76
$GPGGA,110944.05,5521.86737772,N,01025.88436753,E,4,09,1.8,15.220,M,44.043,M,1.0,0185*7F
$GPGGA,110944.10,5521.86737679,N,01025.88436697,E,4,09,1.8,15.224,M,44.043,M,1.1,0185*7D
$GPGGA,110944.15,5521.86737812,N,01025.88436477,E,4,09,1.8,15.217,M,44.043,M,1.1,0185*77
$GPGGA,110944.20,5521.86737514,N,01025.88436352,E,4,09,1.8,15.221,M,44.043,M,1.2,0185*7C
$GPGGA,110944.25,5521.86737561,N,01025.88436518,E,4,09,1.8,15.224,M,44.043,M,1.3,0185*77
$GPGGA,110944.30,5521.86737552,N,01025.88436720,E,4,09,1.8,15.223,M,44.043,M,1.3,0185*7D
$GPGGA,110944.35,5521.86737682,N,01025.88436680,E,4,09,1.8,15.230,M,44.043,M,0.3,0185*7E
$GPGGA,110944.40,5521.86737828,N,01025.88436647,E,4,09,1.8,15.238,M,44.043,M,0.4,0185*76
$GPGGA,110944.45,5521.86737911,N,01025.88436697,E,4,09,1.8,15.243,M,44.043,M,0.4,0185*79
$GPGGA,110944.50,5521.86737763,N,01025.88436674,E,4,09,1.8,15.243,M,44.043,M,0.5,0185*7A
$GPGGA,110944.55,5521.86737680,N,01025.88436471,E,4,09,1.8,15.230,M,44.043,M,0.6,0185*73
$GPGGA,110944.60,5521.86737782,N,01025.88436386,E,4,09,1.8,15.233,M,44.043,M,0.6,0185*7A
$GPGGA,110944.65,5521.86737625,N,01025.88436150,E,4,09,1.8,15.229,M,44.043,M,0.6,0185*71
$GPGGA,110944.70,5521.86737896,N,01025.88436637,E,4,09,1.8,15.235,M,44.043,M,0.7,0185*79
$GPGGA,110944.75,5521.86738180,N,01025.88437383,E,4,09,1.8,15.257,M,44.043,M,0.8,0185*7D
$GPGGA,110944.80,5521.86738145,N,01025.88437466,E,4,09,1.8,15.263,M,44.043,M,0.8,0185*75
$GPGGA,110944.85,5521.86737774,N,01025.88436513,E,4,09,1.8,15.246,M,44.043,M,0.9,0185*7F
$GPGGA,110944.90,5521.86737625,N,01025.88436427,E,4,09,1.8,15.229,M,44.043,M,0.9,0185*71
$GPGGA,110944.95,5521.86737434,N,01025.88435979,E,4,09,1.8,15.222,M,44.043,M,0.9,0185*78
$GPGGA,110945.00,5521.86737825,N,01025.88436660,E,4,09,1.8,15.236,M,44.043,M,1.0,0185*70
$GPGGA,110945.05,5521.86737659,N,01025.88436667,E,4,09,1.8,15.247,M,44.043,M,1.0,0185*71
$GPGGA,110945.10,5521.86737204,N,01025.88436076,E,4,09,1.8,15.232,M,44.043,M,1.1,0185*7C
$GPGGA,110945.15,5521.86737392,N,01025.88436106,E,4,09,1.8,15.232,M,44.043,M,1.1,0185*71
$GPGGA,110945.20,5521.86737492,N,01025.88436183,E,4,09,1.8,15.232,M,44.043,M,1.2,0185*7E
$GPGGA,110945.25,5521.86737491,N,01025.88436184,E,4,09,1.8,15.235,M,44.043,M,1.3,0185*79
$GPGGA,110945.30,5521.86737410,N,01025.88436226,E,4,09,1.8,15.234,M,44.043,M,1.3,0185*7E
$GPGGA,110945.35,5521.86737616,N,01025.88436035,E,4,09,1.8,15.222,M,44.043,M,0.3,0185*79
$GPGGA,110945.40,5521.86737796,N,01025.88436499,E,4,09,1.8,15.229,M,44.043,M,0.4,0185*7C
$GPGGA,110945.45,5521.86737809,N,01025.88436641,E,4,09,1.8,15.235,M,44.043,M,0.4,0185*7A
$GPGGA,110945.50,5521.86737743,N,01025.88436486,E,4,09,1.8,15.235,M,44.043,M,0.5,0185*77
$GPGGA,110945.55,5521.86737861,N,01025.88436542,E,4,09,1.8,15.237,M,44.043,M,0.6,0185*75
$GPGGA,110945.60,5521.86737745,N,01025.88436587,E,4,09,1.8,15.234,M,44.043,M,0.6,0185*70
$GPGGA,110945.65,5521.86737823,N,01025.88436763,E,4,09,1.8,15.232,M,44.043,M,0.6,0185*74
$GPGGA,110945.70,5521.86737953,N,01025.88436656,E,4,09,1.8,15.229,M,44.043,M,0.7,0185*7A
$GPGGA,110945.75,5521.86737907,N,01025.88436654,E,4,09,1.8,15.232,M,44.043,M,0.8,0185*79
$GPGGA,110945.80,5521.86737719,N,01025.88436200,E,4,09,1.8,15.230,M,44.043,M,0.8,0185*75
$GPGGA,110945.85,5521.86737526,N,01025.88436097,E,4,09,1.8,15.226,M,44.043,M,0.9,0185*74
$GPGGA,110945.90,5521.86737623,N,01025.88436428,E,4,09,1.8,15.230,M,44.043,M,0.9,0185*71
$GPGGA,110945.95,5521.86737895,N,01025.88436833,E,4,09,1.8,15.240,M,44.043,M,0.9,0185*76
$GPGGA,110946.00,5521.86737881,N,01025.88436774,E,4,09,1.8,15.230,M,44.043,M,1.0,0185*7F
$GPGGA,110946.05,5521.86737903,N,01025.88436872,E,4,09,1.8,15.228,M,44.043,M,1.0,0185*71
$GPGGA,110946.10,5521.86738061,N,01025.88436945,E,4,09,1.8,15.234,M,44.043,M,1.1,0185*7E
$GPGGA,110946.15,5521.86738032,N,01025.88436819,E,4,09,1.8,15.239,M,44.043,M,1.1,0185*78
$GPGGA,110946.20,5521.86737947,N,01025.88436856,E,4,09,1.8,15.239,M,44.043,M,1.2,0185*72
$GPGGA,110946.25,5521.86737909,N,01025.88436774,E,4,09,1.8,15.231,M,44.043,M,1.3,0185*7B
$GPGGA,110946.30,5521.86738067,N,01025.88436791,E,4,09,1.8,15.230,M,44.043,M,1.3,0185*7B
$GPGGA,110946.35,5521.86737585,N,01025.88436663,E,4,10,1.1,15.223,M,44.043,M,0.3,0185*76
$GPGGA,110946.40,5521.86737461,N,01025.88436277,E,4,10,1.1,15.211,M,44.043,M,0.4,0185*78
$GPGGA,110946.45,5521.86737592,N,01025.88436317,E,4,10,1.1,15.224,M,44.043,M,0.4,0185*71
$GPGGA,110946.50,5521.86737594,N,01025.88436439,E,4,10,1.1,15.222,M,44.043,M,0.5,0185*7F
$GPGGA,110946.55,5521.86737506,N,01025.88436457,E,4,10,1.1,15.225,M,44.043,M,0.6,0185*7D
$GPGGA,110946.60,5521.86737461,N,01025.88436487,E,4,10,1.1,15.222,M,44.043,M,0.6,0185*71
$GPGGA,110946.65,5521.86737490,N,01025.88436333,E,4,10,1.1,15.223,M,44.043,M,0.6,0185*73
$GPGGA,110946.70,5521.86737492,N,01025.88436526,E,4,10,1.1,15.227,M,44.043,M,0.7,0185*72
$GPGGA,110946.75,5521.86737577,N,01025.88436492,E,4,10,1.1,15.226,M,44.043,M,0.8,0185*7D
$GPGGA,110946.80,5521.86737619,N,01025.88436415,E,4,10,1.1,15.225,M,44.043,M,0.8,0185*70
$GPGGA,110946.85,5521.86737568,N,01025.88436215,E,4,10,1.1,15.221,M,44.043,M,0.9,0185*73
$GPGGA,110946.90,5521.86737358,N,01025.88436311,E,4,10,1.1,15.232,M,44.043,M,0.9,0185*75
$GPGGA,110946.95,5521.86737512,N,01025.88436696,E,4,10,1.1,15.230,M,44.043,M,0.9,0185*70
$GPGGA,110947.00,5521.86737440,N,01025.88436703,E,4,10,1.1,15.234,M,44.043,M,1.0,0185*7A
$GPGGA,110947.05,5521.86737719,N,01025.88436456,E,4,10,1.1,15.213,M,44.043,M,1.0,0185*76
$GPGGA,110947.10,5521.86737362,N,01025.88437250,E,4,10,1.1,15.249,M,44.043,M,1.1,0185*75
$GPGGA,110947.15,5521.86737694,N,01025.88436633,E,4,10,1.1,15.232,M,44.043,M,1.1,0185*70
$GPGGA,110947.20,5521.86737619,N,01025.88436426,E,4,10,1.1,15.223,M,44.043,M,1.2,0185*76
$GPGGA,110947.25,5521.86737178,N,01025.88436599,E,4,10,1.1,15.233,M,44.043,M,1.3,0185*76
$GPGGA,110947.30,5521.86737431,N,01025.88436685,E,4,10,1.1,15.231,M,44.043,M,1.3,0185*76
$GPGGA,110947.35,5521.86737858,N,01025.88436516,E,4,10,1.1,15.229,M,44.043,M,0.3,0185*71
$GPGGA,110947.40,5521.86737738,N,01025.88436668,E,4,10,1.1,15.239,M,44.043,M,0.4,0185*76
$GPGGA,110947.45,5521.86737682,N,01025.88436764,E,4,10,1.1,15.246,M,44.043,M,0.4,0185*76
$GPGGA,110947.50,5521.86737669,N,01025.88436691,E,4,10,1.1,15.243,M,44.043,M,0.5,0185*78
$GPGGA,110947.55,5521.86738053,N,01025.88436107,E,4,10,1.1,15.217,M,44.043,M,0.6,0185*77
$GPGGA,110947.60,5521.86737743,N,01025.88436754,E,4,10,1.1,15.241,M,44.043,M,0.6,0185*7B
$GPGGA,110947.65,5521.86737601,N,01025.88436657,E,4,10,1.1,15.244,M,44.043,M,0.6,0185*7E
$GPGGA,110947.70,5521.86737788,N,01025.88436140,E,4,10,1.1,15.225,M,44.043,M,0.7,0185*7D
$GPGGA,110947.75,5521.86737919,N,01025.88435917,E,4,10,1.1,15.218,M,44.043,M,0.8,0185*76
$GPGGA,110947.80,5521.86737752,N,01025.88436841,E,4,10,1.1,15.252,M,44.043,M,0.8,0185*72
$GPGGA,110947.85,5521.86737721,N,01025.88436734,E,4,10,1.1,15.251,M,44.043,M,0.9,0185*7C
$GPGGA,110947.90,5521.86737608,N,01025.88436601,E,4,10,1.1,15.252,M,44.043,M,0.9,0185*76
$GPGGA,110947.95,5521.86737839,N,01025.88436271,E,4,10,1.1,15.228,M,44.043,M,0.9,0185*71
$GPGGA,110948.00,5521.86737850,N,01025.88436227,E,4,10,1.1,15.219,M,44.043,M,1.0,0185*74
$GPGGA,110948.05,5521.86737804,N,01025.88435801,E,4,10,1.1,15.211,M,44.043,M,1.0,0185*75
$GPGGA,110948.10,5521.86737926,N,01025.88436088,E,4,10,1.1,15.222,M,44.043,M,1.1,0185*7B
$GPGGA,110948.15,5521.86738019,N,01025.88436151,E,4,10,1.1,15.228,M,44.043,M,1.1,0185*7B
$GPGGA,110948.20,5521.86737925,N,01025.88436138,E,4,10,1.1,15.227,M,44.043,M,1.2,0185*77
$GPGGA,110948.25,5521.86737959,N,01025.88436244,E,4,10,1.1,15.225,M,44.043,M,1.3,0185*72
$GPGGA,110948.30,5521.86737851,N,01025.88436797,E,4,10,1.1,15.232,M,44.043,M,0.3,0185*73
$GPGGA,110948.35,5521.86737902,N,01025.88436619,E,4,10,1.1,15.227,M,44.043,M,0.3,0185*72
$GPGGA,110948.40,5521.86737811,N,01025.88436785,E,4,10,1.1,15.225,M,44.043,M,0.4,0185*72
$GPGGA,110948.45,5521.86737760,N,01025.88436861,E,4,10,1.1,15.224,M,44.043,M,0.4,0185*7A
$GPGGA,110948.50,5521.86737801,N,01025.88436616,E,4,10,1.1,15.217,M,44.043,M,0.5,0185*79
$GPGGA,110948.55,5521.86737882,N,01025.88436444,E,4,10,1.1,15.219,M,44.043,M,0.6,0185*7F
$GPGGA,110948.60,5521.86737972,N,01025.88436620,E,4,10,1.1,15.226,M,44.043,M,0.6,0185*7B
$GPGGA,110948.65,5521.86737796,N,01025.88436210,E,4,10,1.1,15.220,M,44.043,M,0.6,0185*7B
$GPGGA,110948.70,5521.86737814,N,01025.88436359,E,4,10,1.1,15.223,M,44.043,M,0.7,0185*74
$GPGGA,110948.75,5521.86738062,N,01025.88436613,E,4,10,1.1,15.219,M,44.043,M,0.8,0185*7A
$GPGGA,110948.80,5521.86737975,N,01025.88436752,E,4,10,1.1,15.228,M,44.043,M,0.8,0185*76
$GPGGA,110948.85,5521.86737999,N,01025.88436776,E,4,10,1.1,15.229,M,44.043,M,0.9,0185*77
$GPGGA,110948.90,5521.86737990,N,01025.88436718,E,4,10,1.1,15.224,M,44.043,M,0.9,0185*7F
$GPGGA,110948.95,5521.86737938,N,01025.88436799,E,4,10,1.1,15.231,M,44.043,M,0.9,0185*75
$GPGGA,110949.00,5521.86737799,N,01025.88436476,E,4,10,1.1,15.232,M,44.043,M,1.0,0185*74
$GPGGA,110949.05,5521.86737706,N,01025.88436525,E,4,10,1.1,15.220,M,44.043,M,1.0,0185*73
$GPGGA,110949.10,5521.86737890,N,01025.88436631,E,4,10,1.1,15.219,M,44.043,M,1.1,0185*7A
$GPGGA,110949.15,5521.86738057,N,01025.88436850,E,4,10,1.1,15.233,M,44.043,M,1.1,0185*72
$GPGGA,110949.20,5521.86737940,N,01025.88436768,E,4,10,1.1,15.237,M,44.043,M,1.2,0185*77
$GPGGA,110949.25,5521.86737720,N,01025.88436563,E,4,10,1.1,15.231,M,44.043,M,1.3,0185*74
$GPGGA,110949.30,5521.86737709,N,01025.88436662,E,4,10,1.1,15.227,M,44.043,M,1.3,0185*7E
$GPGGA,110949.35,5521.86737758,N,01025.88436388,E,4,10,1.1,15.234,M,44.043,M,0.3,0185*7D
$GPGGA,110949.40,5521.86737845,N,01025.88436189,E,4,10,1.1,15.233,M,44.043,M,0.4,0185*7F
$GPGGA,110949.45,5521.86737598,N,01025.88436356,E,4,10,1.1,15.224,M,44.043,M,0.4,0185*71
$GPGGA,110949.50,5521.86737597,N,01025.88436094,E,4,10,1.1,15.234,M,44.043,M,0.5,0185*77
$GPGGA,110949.55,5521.86737759,N,01025.88436128,E,4,10,1.1,15.223,M,44.043,M,0.6,0185*71
$GPGGA,110949.60,5521.86737727,N,01025.88436350,E,4,10,1.1,15.238,M,44.043,M,0.6,0185*79
$GPGGA,110949.65,5521.86737722,N,01025.88436591,E,4,10,1.1,15.260,M,44.043,M,0.6,0185*7F
$GPGGA,110949.70,5521.86737883,N,01025.88436182,E,4,10,1.1,15.233,M,44.043,M,0.7,0185*7E
$GPGGA,110949.75,5521.86737608,N,01025.88435989,E,4,10,1.1,15.234,M,44.043,M,0.8,0185*7E
$GPGGA,110949.80,5521.86737609,N,01025.88436189,E,4,10,1.1,15.232,M,44.043,M,0.8,0185*78
$GPGGA,110949.85,5521.86737646,N,01025.88436603,E,4,10,1.1,15.234,M,44.043,M,0.9,0185*74
$GPGGA,110949.90,5521.86737734,N,01025.88436599,E,4,10,1.1,15.242,M,44.043,M,0.9,0185*75
$GPGGA,110949.95,5521.86737859,N,01025.88436296,E,4,10,1.1,15.239,M,44.043,M,0.9,0185*70
$GPGGA,110950.00,5521.86738033,N,01025.88436393,E,4,10,1.1,15.268,M,44.043,M,1.0,0185*77
$GPGGA,110950.05,5521.86737925,N,01025.88436551,E,4,10,1.1,15.261,M,44.043,M,1.0,0185*72
$GPGGA,110950.10,5521.86737839,N,01025.88436160,E,4,10,1.1,15.256,M,44.043,M,1.1,0185*79
$GPGGA,110950.15,5521.86737680,N,01025.88436297,E,4,10,1.1,15.256,M,44.043,M,1.1,0185*7B
$GPGGA,110950.20,5521.86737646,N,01025.88436226,E,4,10,1.1,15.253,M,44.043,M,1.2,0185*7B
$GPGGA,110950.25,5521.86737926,N,01025.88435965,E,4,10,1.1,15.249,M,44.043,M,1.3,0185*72
$GPGGA,110950.30,5521.86737968,N,01025.88436173,E,4,10,1.1,15.256,M,44.043,M,1.3,0185*7E
$GPGGA,110950.35,5521.86737950,N,01025.88436406,E,4,11,1.1,15.222,M,44.043,M,0.3,0185*74
$GPGGA,110950.40,5521.86737866,N,01025.88436089,E,4,11,1.1,15.221,M,44.043,M,0.4,0185*75
$GPGGA,110950.45,5521.86737793,N,01025.88436210,E,4,11,1.1,15.220,M,44.043,M,0.4,0185*76
$GPGGA,110950.50,5521.86737909,N,01025.88436344,E,4,11,1.1,15.223,M,44.043,M,0.5,0185*7D
$GPGGA,110950.55,5521.86738036,N,01025.88436561,E,4,11,1.1,15.227,M,44.043,M,0.6,0185*74
$GPGGA,110950.60,5521.86737978,N,01025.88436265,E,4,11,1.1,15.218,M,44.043,M,0.6,0185*71
$GPGGA,110950.65,5521.86737933,N,01025.88436214,E,4,11,1.1,15.219,M,44.043,M,0.6,0185*7C
$GPGGA,110950.70,5521.86737765,N,01025.88436366,E,4,11,1.1,15.221,M,44.043,M,0.7,0185*7B
$GPGGA,110950.75,5521.86737732,N,01025.88436589,E,4,11,1.1,15.226,M,44.043,M,0.8,0185*73
$GPGGA,110950.80,5521.86737790,N,01025.88436375,E,4,11,1.1,15.220,M,44.043,M,0.8,0185*72
$GPGGA,110950.85,5521.86737873,N,01025.88436232,E,4,11,1.1,15.217,M,44.043,M,0.9,0185*72
$GPGGA,110950.90,5521.86737799,N,01025.88436324,E,4,11,1.1,15.226,M,44.043,M,0.9,0185*79
$GPGGA,110950.95,5521.86737692,N,01025.88436369,E,4,11,1.1,15.225,M,44.043,M,0.9,0185*7C
$GPGGA,110951.00,5521.86737923,N,01025.88436481,E,4,11,1.1,15.225,M,44.043,M,1.0,0185*7D
$GPGGA,110951.05,5521.86738005,N,01025.88436318,E,4,11,1.1,15.227,M,44.043,M,1.0,0185*7F
$GPGGA,110951.10,5521.86738177,N,01025.88436403,E,4,11,1.1,15.233,M,44.043,M,1.1,0185*76
$GPGGA,110951.15,5521.86737889,N,01025.88436213,E,4,11,1.1,15.226,M,44.043,M,1.1,0185*77
$GPGGA,110951.20,5521.86737677,N,01025.88435856,E,4,11,1.1,15.214,M,44.043,M,1.2,0185*74
$GPGGA,110951.25,5521.86737776,N,01025.88436062,E,4,11,1.1,15.216,M,44.043,M,1.3,0185*7E
$GPGGA,110951.30,5521.86737887,N,01025.88436242,E,4,11,1.1,15.229,M,44.043,M,1.3,0185*77
$GPGGA,110951.35,5521.86737940,N,01025.88436568,E,4,11,1.1,15.230,M,44.043,M,1.4,0185*78
$GPGGA,110951.40,5521.86737928,N,01025.88436839,E,4,11,1.1,15.242,M,44.043,M,0.4,0185*79
$GPGGA,110951.45,5521.86737956,N,01025.88436864,E,4,11,1.1,15.237,M,44.043,M,0.4,0185*7F
$GPGGA,110951.50,5521.86737694,N,01025.88436712,E,4,11,1.1,15.244,M,44.043,M,0.5,0185*71
$GPGGA,110951.55,5521.86737671,N,01025.88436398,E,4,11,1.1,15.248,M,44.043,M,0.6,0185*76
$GPGGA,110951.60,5521.86737814,N,01025.88436569,E,4,11,1.1,15.241,M,44.043,M,0.6,0185*7C
$GPGGA,110951.65,5521.86737850,N,01025.88436575,E,4,11,1.1,15.237,M,44.043,M,0.6,0185*75
$GPGGA,110951.70,5521.86737705,N,01025.88436588,E,4,11,1.1,15.240,M,44.043,M,0.7,0185*7D
$GPGGA,110951.75,5521.86737572,N,01025.88436603,E,4,11,1.1,15.236,M,44.043,M,0.8,0185*74
$GPGGA,110951.80,5521.86737659,N,01025.88436629,E,4,11,1.1,15.238,M,44.043,M,0.8,0185*72
$GPGGA,110951.85,5521.86737612,N,01025.88436452,E,4,11,1.1,15.235,M,44.043,M,0.9,0185*7A
$GPGGA,110951.90,5521.86737656,N,01025.88436433,E,4,11,1.1,15.234,M,44.043,M,0.9,0185*78
$GPGGA,110951.95,5521.86737877,N,01025.88436628,E,4,11,1.1,15.241,M,44.043,M,0.9,0185*7A
$GPGGA,110952.00,5521.86737937,N,01025.88436929,E,4,11,1.1,15.244,M,44.043,M,1.0,0185*73
$GPGGA,110952.05,5521.86737767,N,01025.88436693,E,4,11,1.1,15.247,M,44.043,M,1.0,0185*70
$GPGGA,110952.10,5521.86737589,N,01025.88436593,E,4,11,1.1,15.246,M,44.043,M,1.1,0185*75
$GPGGA,110952.15,5521.86737575,N,01025.88436501,E,4,11,1.1,15.244,M,44.043,M,1.1,0185*7A
$GPGGA,110952.20,5521.86737559,N,01025.88436460,E,4,11,1.1,15.244,M,44.043,M,1.2,0185*77
$GPGGA,110952.25,5521.86737718,N,01025.88436618,E,4,11,1.1,15.236,M,44.043,M,1.3,0185*7C
$GPGGA,110952.30,5521.86737773,N,01025.88436545,E,4,11,1.1,15.244,M,44.043,M,1.3,0185*7B
$GPGGA,110952.35,5521.86737669,N,01025.88436775,E,4,11,1.1,15.249,M,44.043,M,0.3,0185*79
$GPGGA,110952.40,5521.86737629,N,01025.88436780,E,4,11,1.1,15.247,M,44.043,M,0.4,0185*7C
$GPGGA,110952.45,5521.86737475,N,01025.88436610,E,4,11,1.1,15.246,M,44.043,M,0.4,0185*7B
$GPGGA,110952.50,5521.86737475,N,01025.88436655,E,4,11,1.1,15.245,M,44.043,M,0.5,0185*7C
$GPGGA,110952.55,5521.86737740,N,01025.88436747,E,4,11,1.1,15.239,M,44.043,M,0.6,0185*76
$GPGGA,110952.60,5521.86737656,N,01025.88436756,E,4,11,1.1,15.240,M,44.043,M,0.6,0185*78
$GPGGA,110952.65,5521.86737602,N,01025.88436604,E,4,11,1.1,15.243,M,44.043,M,0.6,0185*79
$GPGGA,110952.70,5521.86737681,N,01025.88436756,E,4,11,1.1,15.243,M,44.043,M,0.7,0185*71
$GPGGA,110952.75,5521.86737679,N,01025.88436583,E,4,11,1.1,15.234,M,44.043,M,0.8,0185*76
$GPGGA,110952.80,5521.86737875,N,01025.88436408,E,4,11,1.1,15.226,M,44.043,M,0.8,0185*7F
$GPGGA,110952.85,5521.86737612,N,01025.88436760,E,4,11,1.1,15.249,M,44.043,M,0.9,0185*70
$GPGGA,110952.90,5521.86737706,N,01025.88436892,E,4,11,1.1,15.255,M,44.043,M,0.9,0185*7F
$GPGGA,110952.95,5521.86737577,N,01025.88436635,E,4,11,1.1,15.246,M,44.043,M,0.9,0185*7F
$GPGGA,110953.00,5521.86737579,N,01025.88436861,E,4,11,1.1,15.243,M,44.043,M,1.0,0185*7E
$GPGGA,110953.05,5521.86737648,N,01025.88436819,E,4,11,1.1,15.243,M,44.043,M,1.0,0185*75
$GPGGA,110953.10,5521.86737695,N,01025.88436467,E,4,11,1.1,15.238,M,44.043,M,1.1,0185*79
$GPGGA,110953.15,5521.86737573,N,01025.88436805,E,4,11,1.1,15.251,M,44.043,M,1.1,0185*70
$GPGGA,110953.20,5521.86737638,N,01025.88436549,E,4,11,1.1,15.244,M,44.043,M,1.2,0185*78
$GPGGA,110953.25,5521.86737618,N,01025.88436493,E,4,11,1.1,15.245,M,44.043,M,1.3,0185*79
$GPGGA,110953.30,5521.86737718,N,01025.88436399,E,4,11,1.1,15.242,M,44.043,M,0.3,0185*77
$GPGGA,110953.35,5521.86737742,N,01025.88436580,E,4,11,1.1,15.245,M,44.043,M,0.3,0185*74
$GPGGA,110953.40,5521.86737797,N,01025.88436707,E,4,11,1.1,15.253,M,44.043,M,0.4,0185*73
$GPGGA,110953.45,5521.86737669,N,01025.88436519,E,4,11,1.1,15.252,M,44.043,M,0.4,0185*7A
$GPGGA,110953.50,5521.86737725,N,01025.88436281,E,4,11,1.1,15.246,M,44.043,M,0.5,0185*75
$GPGGA,110953.55,5521.86737872,N,01025.88436449,E,4,11,1.1,15.243,M,44.043,M,0.6,0185*79
$GPGGA,110953.60,5521.86737975,N,01025.88436662,E,4,11,1.1,15.249,M,44.043,M,0.6,0185*78
$GPGGA,110953.65,5521.86737765,N,01025.88436586,E,4,11,1.1,15.253,M,44.043,M,0.6,0185*70
$GPGGA,110953.70,5521.86737846,N,01025.88436469,E,4,11,1.1,15.249,M,44.043,M,0.7,0185*70
$GPGGA,110953.75,5521.86737944,N,01025.88436813,E,4,11,1.1,15.248,M,44.043,M,0.8,0185*79
$GPGGA,110953.80,5521.86738017,N,01025.88436869,E,4,11,1.1,15.251,M,44.043,M,0.8,0185*76
$GPGGA,110953.85,5521.86737821,N,01025.88436674,E,4,11,1.1,15.254,M,44.043,M,0.9,0185*77
$GPGGA,110953.90,5521.86737627,N,01025.88436276,E,4,11,1.1,15.244,M,44.043,M,0.9,0185*7C
$GPGGA,110953.95,5521.86737723,N,01025.88436292,E,4,11,1.1,15.247,M,44.043,M,0.9,0185*75
$GPGGA,110954.00,5521.86737783,N,01025.88436141,E,4,11,1.1,15.243,M,44.043,M,1.0,0185*75
$GPGGA,110954.05,5521.86737761,N,01025.88436190,E,4,11,1.1,15.243,M,44.043,M,1.0,0185*70
$GPGGA,110954.10,5521.86737712,N,01025.88436363,E,4,11,1.1,15.243,M,44.043,M,1.1,0185*7F
$GPGGA,110954.15,5521.86737706,N,01025.88436562,E,4,11,1.1,15.241,M,44.043,M,1.1,0185*7A
$GPGGA,110954.20,5521.86737717,N,01025.88436227,E,4,11,1.1,15.238,M,44.043,M,1.2,0185*77
$GPGGA,110954.25,5521.86737649,N,01025.88436187,E,4,11,1.1,15.247,M,44.043,M,1.3,0185*78
$GPGGA,110954.30,5521.86737652,N,01025.88436135,E,4,11,1.1,15.245,M,44.043,M,1.3,0185*7D
$GPGGA,110954.35,5521.86737439,N,01025.88436543,E,4,11,1.1,15.235,M,44.043,M,0.3,0185*74
$GPGGA,110954.40,5521.86737569,N,01025.88436546,E,4,11,1.1,15.242,M,44.043,M,0.4,0185*70
$GPGGA,110954.45,5521.86737714,N,01025.88436694,E,4,11,1.1,15.244,M,44.043,M,0.4,0185*77
$GPGGA,110954.50,5521.86737601,N,01025.88436577,E,4,11,1.1,15.246,M,44.043,M,0.5,0185*7B
$GPGGA,110954.55,5521.86737391,N,01025.88436378,E,4,11,1.1,15.237,M,44.043,M,0.6,0185*7E
$GPGGA,110954.60,5521.86737402,N,01025.88436352,E,4,11,1.1,15.238,M,44.043,M,0.6,0185*72
$GPGGA,110954.65,5521.86737449,N,01025.88436559,E,4,11,1.1,15.241,M,44.043,M,0.6,0185*7B
$GPGGA,110954.70,5521.86737519,N,01025.88436489,E,4,11,1.1,15.231,M,44.043,M,0.7,0185*71
$GPGGA,110954.75,5521.86737569,N,01025.88436594,E,4,11,1.1,15.242,M,44.043,M,0.8,0185*75
$GPGGA,110954.80,5521.86737605,N,01025.88436676,E,4,11,1.1,15.245,M,44.043,M,0.8,0185*7E
$GPGGA,110954.85,5521.86737565,N,01025.88436490,E,4,11,1.1,15.241,M,44.043,M,0.9,0185*71
$GPGGA,110954.90,5521.86737552,N,01025.88436258,E,4,11,1.1,15.232,M,44.043,M,0.9,0185*77
$GPGGA,110954.95,5521.86737566,N,01025.88436363,E,4,11,1.1,15.239,M,44.043,M,0.9,0185*77
$GPGGA,110955.00,5521.86737509,N,01025.88436603,E,4,11,1.1,15.243,M,44.043,M,1.0,0185*75
$GPGGA,110955.05,5521.86737468,N,01025.88436633,E,4,11,1.1,15.243,M,44.043,M,1.0,0185*75
$GPGGA,110955.10,5521.86737445,N,01025.88436572,E,4,11,1.1,15.248,M,44.043,M,1.1,0185*72
$GPGGA,110955.15,5521.86737594,N,01025.88436511,E,4,11,1.1,15.244,M,44.043,M,1.1,0185*73
$GPGGA,110955.20,5521.86737628,N,01025.88436233,E,4,11,1.1,15.238,M,44.043,M,1.2,0185*7E
$GPGGA,110955.25,5521.86737623,N,01025.88436396,E,4,11,1.1,15.239,M,44.043,M,1.3,0185*7E
$GPGGA,110955.30,5521.86737769,N,01025.88436565,E,4,11,1.1,15.240,M,44.043,M,1.3,0185*71
$GPGGA,110955.35,5521.86737738,N,01025.88437193,E,4,11,1.1,15.247,M,44.043,M,0.3,0185*7A
$GPGGA,110955.40,5521.86737879,N,01025.88436887,E,4,11,1.1,15.238,M,44.043,M,0.4,0185*70
$GPGGA,110955.45,5521.86738071,N,01025.88436853,E,4,11,1.1,15.237,M,44.043,M,0.4,0185*7C
$GPGGA,110955.50,5521.86737919,N,01025.88436887,E,4,11,1.1,15.239,M,44.043,M,0.5,0185*76
$GPGGA,110955.55,5521.86737844,N,01025.88436777,E,4,11,1.1,15.230,M,44.043,M,0.6,0185*70
$GPGGA,110955.60,5521.86737819,N,01025.88436630,E,4,11,1.1,15.230,M,44.043,M,0.6,0185*7C
$GPGGA,110955.65,5521.86737860,N,01025.88436801,E,4,11,1.1,15.234,M,44.043,M,0.6,0185*7F
$GPGGA,110955.70,5521.86737898,N,01025.88437083,E,4,11,1.1,15.238,M,44.043,M,0.7,0185*72
$GPGGA,110955.75,5521.86737891,N,01025.88436869,E,4,11,1.1,15.234,M,44.043,M,0.8,0185*70
$GPGGA,110955.80,5521.86737766,N,01025.88436640,E,4,11,1.1,15.226,M,44.043,M,0.8,0185*7B
$GPGGA,110955.85,5521.86738016,N,01025.88436687,E,4,11,1.1,15.229,M,44.043,M,0.9,0185*74
$GPGGA,110955.90,5521.86738060,N,01025.88436757,E,4,11,1.1,15.233,M,44.043,M,0.9,0185*76
$GPGGA,110955.95,5521.86737897,N,01025.88436864,E,4,11,1.1,15.233,M,44.043,M,0.9,0185*73
$GPGGA,110956.00,5521.86737950,N,01025.88437082,E,4,11,1.1,15.237,M,44.043,M,1.0,0185*7B
$GPGGA,110956.05,5521.86738052,N,01025.88437037,E,4,11,1.1,15.236,M,44.043,M,1.0,0185*75
$GPGGA,110956.10,5521.86737884,N,01025.88436848,E,4,11,1.1,15.237,M,44.043,M,1.1,0185*7C
$GPGGA,110956.15,5521.86737754,N,01025.88436790,E,4,11,1.1,15.232,M,44.043,M,1.1,0185*74
$GPGGA,110956.20,5521.86737889,N,01025.88437052,E,4,11,1.1,15.236,M,44.043,M,1.2,0185*72
$GPGGA,110956.25,5521.86737693,N,01025.88436811,E,4,11,1.1,15.228,M,44.043,M,1.3,0185*72
$GPGGA,110956.30,5521.86737729,N,01025.88436578,E,4,11,1.1,15.234,M,44.043,M,1.3,0185*79
$GPGGA,110956.35,5521.86737671,N,01025.88436624,E,4,11,1.1,15.244,M,44.043,M,0.3,0185*7C
$GPGGA,110956.40,5521.86737712,N,01025.88436873,E,4,11,1.1,15.240,M,44.043,M,0.4,0185*75
$GPGGA,110956.45,5521.86737709,N,01025.88436648,E,4,11,1.1,15.246,M,44.043,M,0.4,0185*7A
$GPGGA,110956.50,5521.86737735,N,01025.88436534,E,4,11,1.1,15.244,M,44.043,M,0.5,0185*7A
$GPGGA,110956.55,5521.86737792,N,01025.88436554,E,4,11,1.1,15.243,M,44.043,M,0.6,0185*70
$GPGGA,110956.60,5521.86737589,N,01025.88436743,E,4,11,1.1,15.241,M,44.043,M,0.6,0185*78
$GPGGA,110956.65,5521.86737692,N,01025.88436796,E,4,11,1.1,15.254,M,44.043,M,0.6,0185*78
$GPGGA,110956.70,5521.86737759,N,01025.88436769,E,4,11,1.1,15.248,M,44.043,M,0.7,0185*76
$GPGGA,110956.75,5521.86737776,N,01025.88436784,E,4,11,1.1,15.250,M,44.043,M,0.8,0185*7B
$GPGGA,110956.80,5521.86737776,N,01025.88436824,E,4,11,1.1,15.244,M,44.043,M,0.8,0185*71
$GPGGA,110956.85,5521.86737749,N,01025.88436823,E,4,11,1.1,15.246,M,44.043,M,0.9,0185*7C
$GPGGA,110956.90,5521.86737945,N,01025.88436680,E,4,11,1.1,15.252,M,44.043,M,0.9,0185*78
$GPGGA,110956.95,5521.86737705,N,01025.88436377,E,4,11,1.1,15.241,M,44.043,M,0.9,0185*78
$GPGGA,110957.00,5521.86737651,N,01025.88436393,E,4,11,1.1,15.245,M,44.043,M,1.0,0185*73
$GPGGA,110957.05,5521.86737856,N,01025.88436689,E,4,11,1.1,15.256,M,44.043,M,1.0,0185*73
$GPGGA,110957.10,5521.86737732,N,01025.88436741,E,4,11,1.1,15.252,M,44.043,M,1.1,0185*7A
$GPGGA,110957.15,5521.86737356,N,01025.88436604,E,4,11,1.1,15.254,M,44.043,M,1.1,0185*7F
$GPGGA,110957.20,5521.86737805,N,01025.88436461,E,4,11,1.1,15.240,M,44.043,M,1.2,0185*73
$GPGGA,110957.25,5521.86737881,N,01025.88436542,E,4,11,1.1,15.241,M,44.043,M,1.3,0185*7A
$GPGGA,110957.30,5521.86737783,N,01025.88436659,E,4,11,1.1,15.244,M,44.043,M,1.3,0185*7F
$GPGGA,110957.35,5521.86737767,N,01025.88436720,E,4,11,1.1,15.222,M,44.043,M,0.3,0185*7E
$GPGGA,110957.40,5521.86737711,N,01025.88436700,E,4,11,1.1,15.234,M,44.043,M,0.4,0185*7F
$GPGGA,110957.45,5521.86737682,N,01025.88436605,E,4,11,1.1,15.229,M,44.043,M,0.4,0185*79
$GPGGA,110957.50,5521.86737704,N,01025.88436270,E,4,11,1.1,15.231,M,44.043,M,0.5,0185*7C
$GPGGA,110957.55,5521.86737822,N,01025.88436765,E,4,11,1.1,15.226,M,44.043,M,0.6,0185*76
$GPGGA,110957.60,5521.86737683,N,01025.88436535,E,4,11,1.1,15.228,M,44.043,M,0.6,0185*7C
$GPGGA,110957.65,5521.86737678,N,01025.88436600,E,4,11,1.1,15.240,M,44.043,M,0.6,0185*76
$GPGGA,110957.70,5521.86737694,N,01025.88436372,E,4,11,1.1,15.235,M,44.043,M,0.7,0185*73
$GPGGA,110957.75,5521.86737951,N,01025.88436311,E,4,11,1.1,15.243,M,44.043,M,0.8,0185*7B
$GPGGA,110957.80,5521.86738040,N,01025.88436661,E,4,11,1.1,15.243,M,44.043,M,0.8,0185*75
$GPGGA,110957.85,5521.86737964,N,01025.88436787,E,4,11,1.1,15.236,M,44.043,M,0.9,0185*7A
$GPGGA,110957.90,5521.86737860,N,01025.88436519,E,4,11,1.1,15.231,M,44.043,M,0.9,0185*79
$GPGGA,110957.95,5521.86737857,N,01025.88436339,E,4,11,1.1,15.232,M,44.043,M,0.9,0185*7F
$GPGGA,110958.00,5521.86737951,N,01025.88436642,E,4,11,1.1,15.243,M,44.043,M,1.0,0185*7C
$GPGGA,110958.05,5521.86737691,N,01025.88436716,E,4,11,1.1,15.244,M,44.043,M,1.0,0185*7D
$GPGGA,110958.10,5521.86737655,N,01025.88436648,E,4,11,1.1,15.245,M,44.043,M,1.1,0185*7B
$GPGGA,110958.15,5521.86737602,N,01025.88436808,E,4,11,1.1,15.243,M,44.043,M,1.1,0185*70
$GPGGA,110958.20,5521.86737584,N,01025.88436666,E,4,11,1.1,15.242,M,44.043,M,1.2,0185*7F
$GPGGA,110958.25,5521.86737643,N,01025.88436537,E,4,11,1.1,15.240,M,44.043,M,1.3,0185*76
$GPGGA,110958.30,5521.86737848,N,01025.88436829,E,4,11,1.1,15.246,M,44.043,M,0.3,0185*72
$GPGGA,110958.35,5521.86737687,N,01025.88436916,E,4,11,1.1,15.250,M,44.043,M,0.3,0185*70
$GPGGA,110958.40,5521.86737987,N,01025.88436655,E,4,11,1.1,15.230,M,44.043,M,0.4,0185*74
$GPGGA,110958.45,5521.86737539,N,01025.88436768,E,4,11,1.1,15.240,M,44.043,M,0.4,0185*70
$GPGGA,110958.50,5521.86737528,N,01025.88436852,E,4,11,1.1,15.238,M,44.043,M,0.5,0185*7C
$GPGGA,110958.55,5521.86737571,N,01025.88436780,E,4,11,1.1,15.239,M,44.043,M,0.6,0185*77
$GPGGA,110958.60,5521.86737553,N,01025.88436732,E,4,11,1.1,15.242,M,44.043,M,0.6,0185*74
$GPGGA,110958.65,5521.86737779,N,01025.88436790,E,4,11,1.1,15.242,M,44.043,M,0.6,0185*73
$GPGGA,110958.70,5521.86737842,N,01025.88436887,E,4,11,1.1,15.242,M,44.043,M,0.7,0185*78
$GPGGA,110958.75,5521.86737652,N,01025.88436885,E,4,11,1.1,15.240,M,44.043,M,0.8,0185*7D
$GPGGA,110958.80,5521.86736748,N,01025.88435762,E,4,11,1.1,15.222,M,44.043,M,0.8,0185*7D
$GPGGA,110958.85,5521.86736998,N,01025.88435819,E,4,11,1.1,15.227,M,44.043,M,0.9,0185*7C
$GPGGA,110958.90,5521.86737559,N,01025.88436583,E,4,11,1.1,15.244,M,44.043,M,0.9,0185*70
$GPGGA,110958.95,5521.86737685,N,01025.88436777,E,4,11,1.1,15.243,M,44.043,M,0.9,0185*79
$GPGGA,110959.00,5521.86737654,N,01025.88436800,E,4,11,1.1,15.234,M,44.043,M,1.0,0185*7F
$GPGGA,110959.05,5521.86737772,N,01025.88437001,E,4,11,1.1,15.242,M,44.043,M,1.0,0185*76
$GPGGA,110959.10,5521.86737770,N,01025.88437071,E,4,11,1.1,15.247,M,44.043,M,1.1,0185*73
$GPGGA,110959.15,5521.86737750,N,01025.88436709,E,4,11,1.1,15.246,M,44.043,M,1.1,0185*7C
$GPGGA,110959.20,5521.86737731,N,01025.88436472,E,4,11,1.1,15.237,M,44.043,M,1.2,0185*77
$GPGGA,110959.25,5521.86737625,N,01025.88436509,E,4,11,1.1,15.238,M,44.043,M,1.3,0185*75
$GPGGA,110959.30,5521.86737604,N,01025.88436656,E,4,11,1.1,15.247,M,44.043,M,1.3,0185*73
$GPGGA,110959.35,5521.86737883,N,01025.88436723,E,4,11,1.1,15.250,M,44.043,M,0.3,0185*73
$GPGGA,110959.40,5521.86737819,N,01025.88436455,E,4,11,1.1,15.244,M,44.043,M,0.4,0185*72
$GPGGA,110959.45,5521.86737826,N,01025.88436451,E,4,11,1.1,15.241,M,44.043,M,0.4,0185*7A
$GPGGA,110959.50,5521.86737744,N,01025.88436438,E,4,11,1.1,15.243,M,44.043,M,0.5,0185*79
$GPGGA,110959.55,5521.86737793,N,01025.88436535,E,4,11,1.1,15.234,M,44.043,M,0.6,0185*79
$GPGGA,110959.60,5521.86737916,N,01025.88436724,E,4,11,1.1,15.246,M,44.043,M,0.6,0185*7B
$GPGGA,110959.65,5521.86737817,N,01025.88436383,E,4,11,1.1,15.238,M,44.043,M,0.6,0185*7E
$GPGGA,110959.70,5521.86737750,N,01025.88436257,E,4,11,1.1,15.238,M,44.043,M,0.7,0185*7F
$GPGGA,110959.75,5521.86737788,N,01025.88436812,E,4,11,1.1,15.246,M,44.043,M,0.8,0185*72
$GPGGA,110959.80,5521.86737932,N,01025.88436639,E,4,11,1.1,15.237,M,44.043,M,0.8,0185*76
$GPGGA,110959.85,5521.86737941,N,01025.88436763,E,4,11,1.1,15.245,M,44.043,M,0.9,0185*7D
$GPGGA,110959.90,5521.86737927,N,01025.88436882,E,4,11,1.1,15.248,M,44.043,M,0.9,0185*74
$GPGGA,110959.95,5521.86737877,N,01025.88436556,E,4,11,1.1,15.244,M,44.043,M,0.9,0185*7D
$GPGGA,111000.00,5521.86737856,N,01025.88437009,E,4,11,1.1,15.251,M,44.043,M,1.0,0185*74
$GPGGA,111000.05,5521.86737830,N,01025.88437040,E,4,11,1.1,15.252,M,44.043,M,1.0,0185*7F
$GPGGA,111000.10,5521.86737833,N,01025.88436746,E,4,11,1.1,15.251,M,44.043,M,1.1,0185*7A
$GPGGA,111000.15,5521.86737894,N,01025.88436666,E,4,11,1.1,15.242,M,44.043,M,1.1,0185*73
$GPGGA,111000.20,5521.86737985,N,01025.88436920,E,4,11,1.1,15.250,M,44.043,M,1.2,0185*79
$GPGGA,111000.25,5521.86737979,N,01025.88436931,E,4,11,1.1,15.252,M,44.043,M,1.3,0185*7C
$GPGGA,111000.30,5521.86737945,N,01025.88436792,E,4,11,1.1,15.253,M,44.043,M,1.3,0185*71
$GPGGA,111000.35,5521.86737906,N,01025.88436930,E,4,11,1.1,15.253,M,44.043,M,1.4,0185*72
$GPGGA,111000.40,5521.86737789,N,01025.88436969,E,4,11,1.1,15.248,M,44.043,M,0.4,0185*7E
$GPGGA,111000.45,5521.86737871,N,01025.88436881,E,4,11,1.1,15.244,M,44.043,M,0.4,0185*78
$GPGGA,111000.50,5521.86737857,N,01025.88436952,E,4,11,1.1,15.244,M,44.043,M,0.5,0185*76
$GPGGA,111000.55,5521.86737815,N,01025.88437027,E,4,11,1.1,15.245,M,44.043,M,0.6,0185*7D
$GPGGA,111000.60,5521.86737682,N,01025.88436744,E,4,11,1.1,15.234,M,44.043,M,0.6,0185*7E
$GPGGA,111000.65,5521.86737715,N,01025.88436613,E,4,11,1.1,15.244,M,44.043,M,0.6,0185*70
$GPGGA,111000.70,5521.86737701,N,01025.88436583,E,4,11,1.1,15.240,M,44.043,M,0.7,0185*7E
$GPGGA,111000.75,5521.86737638,N,01025.88436615,E,4,11,1.1,15.238,M,44.043,M,0.8,0185*7C
$GPGGA,111000.80,5521.86737767,N,01025.88436666,E,4,11,1.1,15.244,M,44.043,M,0.8,0185*72
$GPGGA,111000.85,5521.86737822,N,01025.88436743,E,4,11,1.1,15.240,M,44.043,M,0.9,0185*7A
$GPGGA,111000.90,5521.86737888,N,01025.88436776,E,4,11,1.1,15.245,M,44.043,M,0.9,0185*7D
$GPGGA,111000.95,5521.86737817,N,01025.88436727,E,4,11,1.1,15.242,M,44.043,M,0.9,0185*7D
$GPGGA,111001.00,5521.86737708,N,01025.88436588,E,4,11,1.1,15.239,M,44.043,M,1.0,0185*72
$GPGGA,111001.05,5521.86737704,N,01025.88436456,E,4,11,1.1,15.238,M,44.043,M,1.0,0185*78
$GPGGA,111001.10,5521.86737781,N,01025.88436616,E,4,11,1.1,15.239,M,44.043,M,1.1,0185*77
$GPGGA,111001.15,5521.86737965,N,01025.88436895,E,4,11,1.1,15.249,M,44.043,M,1.1,0185*74
$GPGGA,111001.20,5521.86738028,N,01025.88436831,E,4,11,1.1,15.249,M,44.043,M,1.2,0185*70
$GPGGA,111001.25,5521.86738021,N,01025.88436778,E,4,11,1.1,15.250,M,44.043,M,1.3,0185*77
$GPGGA,111001.30,5521.86737974,N,01025.88436851,E,4,11,1.1,15.249,M,44.043,M,1.3,0185*79
$GPGGA,111001.35,5521.86737640,N,01025.88436523,E,4,11,1.1,15.245,M,44.043,M,0.3,0185*71
$GPGGA,111001.40,5521.86737607,N,01025.88436476,E,4,11,1.1,15.234,M,44.043,M,0.4,0185*70
$GPGGA,111001.45,5521.86737697,N,01025.88436660,E,4,11,1.1,15.243,M,44.043,M,0.4,0185*79
$GPGGA,111001.50,5521.86737748,N,01025.88436787,E,4,11,1.1,15.250,M,44.043,M,0.5,0185*75
$GPGGA,111001.55,5521.86737729,N,01025.88436754,E,4,11,1.1,15.249,M,44.043,M,0.6,0185*72
$GPGGA,111001.60,5521.86737734,N,01025.88436540,E,4,11,1.1,15.245,M,44.043,M,0.6,0185*73
$GPGGA,111001.65,5521.86737797,N,01025.88436578,E,4,11,1.1,15.242,M,44.043,M,0.6,0185*73
$GPGGA,111001.70,5521.86737855,N,01025.88436748,E,4,11,1.1,15.251,M,44.043,M,0.7,0185*74
$GPGGA,111001.75,5521.86737773,N,01025.88436735,E,4,11,1.1,15.253,M,44.043,M,0.8,0185*7D
$GPGGA,111001.80,5521.86737685,N,01025.88436595,E,4,11,1.1,15.248,M,44.043,M,0.8,0185*7D
$GPGGA,111001.85,5521.86738086,N,01025.88437144,E,4,11,1.1,15.252,M,44.043,M,0.9,0185*71
$GPGGA,111001.90,5521.86738012,N,01025.88437064,E,4,11,1.1,15.247,M,44.043,M,0.9,0185*7F
$GPGGA,111001.95,5521.86738119,N,01025.88437093,E,4,11,1.1,15.252,M,44.043,M,0.9,0185*7C
$GPGGA,111002.00,5521.86737920,N,01025.88436883,E,4,11,1.1,15.255,M,44.043,M,1.0,0185*79
$GPGGA,111002.05,5521.86737874,N,01025.88436592,E,4,11,1.1,15.253,M,44.043,M,1.0,0185*77
$GPGGA,111002.10,5521.86737744,N,01025.88436324,E,4,11,1.1,15.241,M,44.043,M,1.1,0185*76
$GPGGA,111002.15,5521.86737955,N,01025.88436475,E,4,11,1.1,15.246,M,44.043,M,1.1,0185*79
$GPGGA,111002.20,5521.86737888,N,01025.88436781,E,4,11,1.1,15.249,M,44.043,M,1.2,0185*7A
$GPGGA,111002.25,5521.86737849,N,01025.88437034,E,4,11,1.1,15.249,M,44.043,M,1.3,0185*7B
$GPGGA,111002.30,5521.86737872,N,01025.88436783,E,4,11,1.1,15.246,M,44.043,M,1.3,0185*72
$GPGGA,111002.35,5521.86738022,N,01025.88436763,E,4,11,1.1,15.238,M,44.043,M,0.3,0185*73
$GPGGA,111002.40,5521.86737985,N,01025.88436805,E,4,11,1.1,15.240,M,44.043,M,0.4,0185*7D
$GPGGA,111002.45,5521.86737869,N,01025.88436639,E,4,11,1.1,15.238,M,44.043,M,0.4,0185*75
$GPGGA,111002.50,5521.86737969,N,01025.88436762,E,4,11,1.1,15.244,M,44.043,M,0.5,0185*75
$GPGGA,111002.55,5521.86737943,N,01025.88436759,E,4,11,1.1,15.237,M,44.043,M,0.6,0185*77
$GPGGA,111002.60,5521.86737912,N,01025.88436643,E,4,11,1.1,15.235,M,44.043,M,0.6,0185*7D
$GPGGA,111002.65,5521.86737994,N,01025.88436779,E,4,11,1.1,15.246,M,44.043,M,0.6,0185*7A
$GPGGA,111002.70,5521.86738143,N,01025.88436897,E,4,11,1.1,15.242,M,44.043,M,0.7,0185*79
$GPGGA,111002.75,5521.86738076,N,01025.88436840,E,4,11,1.1,15.242,M,44.043,M,0.8,0185*7E
$GPGGA,111002.80,5521.86738042,N,01025.88436761,E,4,11,1.1,15.239,M,44.043,M,0.8,0185*73
$GPGGA,111002.85,5521.86737997,N,01025.88436557,E,4,11,1.1,15.238,M,44.043,M,0.9,0185*7F
$GPGGA,111002.90,5521.86738026,N,01025.88436429,E,4,11,1.1,15.244,M,44.043,M,0.9,0185*74
$GPGGA,111002.95,5521.86738078,N,01025.88436814,E,4,11,1.1,15.240,M,44.043,M,0.9,0185*7C
$GPGGA,111003.00,5521.86737916,N,01025.88436767,E,4,11,1.1,15.243,M,44.043,M,1.0,0185*7F
$GPGGA,111003.05,5521.86737968,N,01025.88436903,E,4,11,1.1,15.242,M,44.043,M,1.0,0185*7E
$GPGGA,111003.10,5521.86738052,N,01025.88436778,E,4,11,1.1,15.243,M,44.043,M,1.1,0185*77
$GPGGA,111003.15,5521.86737808,N,01025.88436703,E,4,11,1.1,15.233,M,44.043,M,1.1,0185*71
$GPGGA,111003.20,5521.86737921,N,01025.88436853,E,4,11,1.1,15.238,M,44.043,M,1.2,0185*7F
$GPGGA,111003.25,5521.86737891,N,01025.88436940,E,4,11,1.1,15.242,M,44.043,M,1.3,0185*7F
$GPGGA,111003.30,5521.86737954,N,01025.88436685,E,4,11,1.1,15.248,M,44.043,M,1.3,0185*7F
$GPGGA,111003.35,5521.86737968,N,01025.88436544,E,4,11,1.1,15.242,M,44.043,M,1.4,0185*76
$GPGGA,111003.40,5521.86737989,N,01025.88436647,E,4,11,1.1,15.239,M,44.043,M,1.4,0185*77
$GPGGA,111003.45,5521.86737914,N,01025.88436514,E,4,11,1.1,15.244,M,44.043,M,1.5,0185*78
$GPGGA,111003.50,5521.86737990,N,01025.88436441,E,4,11,1.1,15.239,M,44.043,M,0.5,0185*7A
$GPGGA,111003.55,5521.86738014,N,01025.88436266,E,4,11,1.1,15.233,M,44.043,M,0.6,0185*7F
$GPGGA,111003.60,5521.86737810,N,01025.88436399,E,4,11,1.1,15.225,M,44.043,M,0.6,0185*7C
$GPGGA,111003.65,5521.86737852,N,01025.88436682,E,4,11,1.1,15.229,M,44.043,M,0.6,0185*7C
$GPGGA,111003.70,5521.86738011,N,01025.88436683,E,4,11,1.1,15.242,M,44.043,M,0.7,0185*75
$GPGGA,111003.75,5521.86737930,N,01025.88436822,E,4,11,1.1,15.241,M,44.043,M,0.8,0185*7C
$GPGGA,111003.80,5521.86738058,N,01025.88436705,E,4,11,1.1,15.241,M,44.043,M,0.8,0185*74
$GPGGA,111003.85,5521.86738099,N,01025.88436820,E,4,11,1.1,15.241,M,44.043,M,0.9,0185*75
$GPGGA,111003.90,5521.86737979,N,01025.88436661,E,4,11,1.1,15.237,M,44.043,M,0.9,0185*73
$GPGGA,111003.95,5521.86737976,N,01025.88436656,E,4,11,1.1,15.232,M,44.043,M,0.9,0185*78
$GPGGA,111004.00,5521.86738160,N,01025.88436778,E,4,11,1.1,15.239,M,44.043,M,1.0,0185*7D
$GPGGA,111004.05,5521.86738145,N,01025.88436818,E,4,11,1.1,15.242,M,44.043,M,1.0,0185*7A
$GPGGA,111004.10,5521.86738069,N,01025.88436973,E,4,11,1.1,15.245,M,44.043,M,1.1,0185*7B
$GPGGA,111004.15,5521.86738020,N,01025.88436755,E,4,11,1.1,15.239,M,44.043,M,1.1,0185*72
$GPGGA,111004.20,5521.86738220,N,01025.88436957,E,4,11,1.1,15.236,M,44.043,M,1.2,0185*76
$GPGGA,111004.25,5521.86738318,N,01025.88436800,E,4,11,1.1,15.240,M,44.043,M,1.3,0185*7A
$GPGGA,111004.30,5521.86738167,N,01025.88436859,E,4,11,1.1,15.241,M,44.043,M,1.3,0185*79
$GPGGA,111004.35,5521.86737774,N,01025.88436515,E,4,11,1.1,15.237,M,44.043,M,0.3,0185*72
$GPGGA,111004.40,5521.86737785,N,01025.88436520,E,4,11,1.1,15.238,M,44.043,M,0.4,0185*70
$GPGGA,111004.45,5521.86737780,N,01025.88436488,E,4,11,1.1,15.236,M,44.043,M,0.4,0185*7D
$GPGGA,111004.50,5521.86737628,N,01025.88436453,E,4,11,1.1,15.240,M,44.043,M,0.5,0185*7C
$GPGGA,111004.55,5521.86737621,N,01025.88436732,E,4,11,1.1,15.232,M,44.043,M,0.6,0185*72
$GPGGA,111004.60,5521.86737685,N,01025.88436529,E,4,11,1.1,15.225,M,44.043,M,0.6,0185*74
$GPGGA,111004.65,5521.86737667,N,01025.88436312,E,4,11,1.1,15.222,M,44.043,M,0.6,0185*74
$GPGGA,111004.70,5521.86737738,N,01025.88436606,E,4,11,1.1,15.233,M,44.043,M,0.7,0185*7A
$GPGGA,111004.75,5521.86737823,N,01025.88436575,E,4,11,1.1,15.230,M,44.043,M,0.8,0185*71
$GPGGA,111004.80,5521.86737785,N,01025.88436277,E,4,11,1.1,15.233,M,44.043,M,0.8,0185*7E
$GPGGA,111004.85,5521.86737878,N,01025.88436209,E,4,11,1.1,15.238,M,44.043,M,0.9,0185*75
$GPGGA,111004.90,5521.86737874,N,01025.88436229,E,4,11,1.1,15.235,M,44.043,M,0.9,0185*72
$GPGGA,111004.95,5521.86737855,N,01025.88436625,E,4,11,1.1,15.240,M,44.043,M,0.9,0185*7E
$GPGGA,111005.00,5521.86737723,N,01025.88436854,E,4,11,1.1,15.246,M,44.043,M,1.0,0185*7B
$GPGGA,111005.05,5521.86737756,N,01025.88436771,E,4,11,1.1,15.246,M,44.043,M,1.0,0185*74
$GPGGA,111005.10,5521.86737828,N,01025.88436580,E,4,11,1.1,15.245,M,44.043,M,1.1,0185*78
$GPGGA,111005.15,5521.86737574,N,01025.88436420,E,4,11,1.1,15.226,M,44.043,M,1.1,0185*77
$GPGGA,111005.20,5521.86737769,N,01025.88436182,E,4,11,1.1,15.235,M,44.043,M,1.2,0185*73
$GPGGA,111005.25,5521.86737849,N,01025.88436831,E,4,11,1.1,15.242,M,44.043,M,1.3,0185*7B
$GPGGA,111005.30,5521.86737810,N,01025.88436693,E,4,11,1.1,15.234,M,44.043,M,1.3,0185*74
$GPGGA,111005.35,5521.86737926,N,01025.88436382,E,4,11,1.1,15.233,M,44.043,M,0.3,0185*76
$GPGGA,111005.40,5521.86738020,N,01025.88436397,E,4,11,1.1,15.235,M,44.043,M,0.4,0185*71
$GPGGA,111005.45,5521.86737983,N,01025.88436648,E,4,11,1.1,15.245,M,44.043,M,0.4,0185*7B
$GPGGA,111005.50,5521.86737812,N,01025.88436492,E,4,11,1.1,15.240,M,44.043,M,0.5,0185*77
$GPGGA,111005.55,5521.86737786,N,01025.88436360,E,4,11,1.1,15.243,M,44.043,M,0.6,0185*7A
$GPGGA,111005.60,5521.86738016,N,01025.88436346,E,4,11,1.1,15.243,M,44.043,M,0.6,0185*79
$GPGGA,111005.65,5521.86737989,N,01025.88436392,E,4,11,1.1,15.236,M,44.043,M,0.6,0185*77
$GPGGA,111005.70,5521.86737868,N,01025.88436305,E,4,11,1.1,15.245,M,44.043,M,0.7,0185*76
$GPGGA,111005.75,5521.86737969,N,01025.88436384,E,4,11,1.1,15.252,M,44.043,M,0.8,0185*73
$GPGGA,111005.80,5521.86738071,N,01025.88436490,E,4,11,1.1,15.240,M,44.043,M,0.8,0185*77
$GPGGA,111005.85,5521.86738037,N,01025.88436697,E,4,11,1.1,15.242,M,44.043,M,0.9,0185*76
$GPGGA,111005.90,5521.86737804,N,01025.88436439,E,4,11,1.1,15.236,M,44.043,M,0.9,0185*70
$GPGGA,111005.95,5521.86737957,N,01025.88436342,E,4,11,1.1,15.237,M,44.043,M,0.9,0185*78
$GPGGA,111006.00,5521.86738091,N,01025.88436312,E,4,11,1.1,15.233,M,44.043,M,1.0,0185*72
$GPGGA,111006.05,5521.86737945,N,01025.88436284,E,4,11,1.1,15.240,M,44.043,M,1.0,0185*72
$GPGGA,111006.10,5521.86737866,N,01025.88436565,E,4,11,1.1,15.241,M,44.043,M,1.1,0185*7E
$GPGGA,111006.15,5521.86737934,N,01025.88436608,E,4,11,1.1,15.245,M,44.043,M,1.1,0185*71
$GPGGA,111006.20,5521.86738025,N,01025.88436547,E,4,11,1.1,15.248,M,44.043,M,1.2,0185*77
$GPGGA,111006.25,5521.86738060,N,01025.88436651,E,4,11,1.1,15.241,M,44.043,M,1.3,0185*7F
$GPGGA,111006.30,5521.86737959,N,01025.88436588,E,4,11,1.1,15.243,M,44.043,M,1.3,0185*72
$GPGGA,111006.35,5521.86737616,N,01025.88436714,E,4,11,1.1,15.234,M,44.043,M,0.3,0185*75
$GPGGA,111006.40,5521.86737674,N,01025.88436604,E,4,11,1.1,15.237,M,44.043,M,0.4,0185*77
$GPGGA,111006.45,5521.86737665,N,01025.88436527,E,4,11,1.1,15.228,M,44.043,M,0.4,0185*7E
$GPGGA,111006.50,5521.86737665,N,01025.88436770,E,4,11,1.1,15.238,M,44.043,M,0.5,0185*7A
$GPGGA,111006.55,5521.86737681,N,01025.88436885,E,4,11,1.1,15.241,M,44.043,M,0.6,0185*7D
$GPGGA,111006.60,5521.86737718,N,01025.88436720,E,4,11,1.1,15.236,M,44.043,M,0.6,0185*7A
$GPGGA,111006.65,5521.86737827,N,01025.88436590,E,4,11,1.1,15.232,M,44.043,M,0.6,0185*71
$GPGGA,111006.70,5521.86737657,N,01025.88436700,E,4,11,1.1,15.235,M,44.043,M,0.7,0185*71
$GPGGA,111006.75,5521.86737566,N,01025.88436560,E,4,11,1.1,15.242,M,44.043,M,0.8,0185*7E
$GPGGA,111006.80,5521.86737707,N,01025.88436705,E,4,11,1.1,15.245,M,44.043,M,0.8,0185*77
$GPGGA,111006.85,5521.86737893,N,01025.88436668,E,4,11,1.1,15.239,M,44.043,M,0.9,0185*70
$GPGGA,111006.90,5521.86737692,N,01025.88436352,E,4,11,1.1,15.235,M,44.043,M,0.9,0185*7B
$GPGGA,111006.95,5521.86737922,N,01025.88436734,E,4,11,1.1,15.239,M,44.043,M,0.9,0185*72
$GPGGA,111007.00,5521.86737704,N,01025.88436608,E,4,11,1.1,15.233,M,44.043,M,1.0,0185*79
$GPGGA,111007.05,5521.86737757,N,01025.88436560,E,4,11,1.1,15.226,M,44.043,M,1.0,0185*73
$GPGGA,111007.10,5521.86738029,N,01025.88436711,E,4,11,1.1,15.236,M,44.043,M,1.1,0185*72
$GPGGA,111007.15,5521.86737819,N,01025.88436617,E,4,11,1.1,15.237,M,44.043,M,1.1,0185*75
$GPGGA,111007.20,5521.86737695,N,01025.88436603,E,4,11,1.1,15.234,M,44.043,M,1.2,0185*7C
$GPGGA,111007.25,5521.86737672,N,01025.88436704,E,4,11,1.1,15.237,M,44.043,M,1.3,0185*74
$GPGGA,111007.30,5521.86737688,N,01025.88436803,E,4,11,1.1,15.239,M,44.043,M,1.3,0185*73
$GPGGA,111007.35,5521.86737960,N,01025.88436553,E,4,11,1.1,15.231,M,44.043,M,0.3,0185*7E
$GPGGA,111007.40,5521.86738026,N,01025.88436404,E,4,11,1.1,15.235,M,44.043,M,0.4,0185*78
$GPGGA,111007.45,5521.86737858,N,01025.88436200,E,4,11,1.1,15.234,M,44.043,M,0.4,0185*70
$GPGGA,111007.50,5521.86737772,N,01025.88436140,E,4,11,1.1,15.231,M,44.043,M,0.5,0185*70
$GPGGA,111007.55,5521.86737771,N,01025.88436518,E,4,11,1.1,15.232,M,44.043,M,0.6,0185*7F
$GPGGA,111007.60,5521.86737872,N,01025.88436557,E,4,11,1.1,15.229,M,44.043,M,0.6,0185*74
$GPGGA,111007.65,5521.86737850,N,01025.88436540,E,4,11,1.1,15.223,M,44.043,M,0.6,0185*7D
$GPGGA,111007.70,5521.86737956,N,01025.88436170,E,4,11,1.1,15.223,M,44.043,M,0.7,0185*78
$GPGGA,111007.75,5521.86737880,N,01025.88436567,E,4,11,1.1,15.229,M,44.043,M,0.8,0185*70
$GPGGA,111007.80,5521.86737830,N,01025.88436655,E,4,11,1.1,15.237,M,44.043,M,0.8,0185*7C
$GPGGA,111007.85,5521.86737654,N,01025.88436595,E,4,11,1.1,15.229,M,44.043,M,0.9,0185*74
$GPGGA,111007.90,5521.86737714,N,01025.88436824,E,4,11,1.1,15.234,M,44.043,M,0.9,0185*7E
$GPGGA,111007.95,5521.86737855,N,01025.88436340,E,4,11,1.1,15.223,M,44.043,M,0.9,0185*7E
$GPGGA,111008.00,5521.86738126,N,01025.88436763,E,4,11,1.1,15.214,M,44.043,M,1.0,0185*76
$GPGGA,111008.05,5521.86738061,N,01025.88436960,E,4,11,1.1,15.223,M,44.043,M,1.0,0185*78
$GPGGA,111008.10,5521.86738174,N,01025.88436543,E,4,11,1.1,15.204,M,44.043,M,1.1,0185*70
$GPGGA,111008.15,5521.86738159,N,01025.88436613,E,4,11,1.1,15.205,M,44.043,M,1.1,0185*7D
$GPGGA,111008.20,5521.86738225,N,01025.88436782,E,4,11,1.1,15.223,M,44.043,M,1.2,0185*7D
$GPGGA,111008.25,5521.86738100,N,01025.88436634,E,4,11,1.1,15.212,M,44.043,M,1.3,0185*73
$GPGGA,111008.30,5521.86737579,N,01025.88437124,E,4,11,1.1,15.248,M,44.043,M,0.3,0185*7B
$GPGGA,111008.35,5521.86737542,N,01025.88437380,E,4,11,1.1,15.249,M,44.043,M,0.3,0185*7B
$GPGGA,111008.40,5521.86737815,N,01025.88436638,E,4,11,1.1,15.228,M,44.043,M,0.4,0185*71
$GPGGA,111008.45,5521.86737516,N,01025.88437317,E,4,11,1.1,15.249,M,44.043,M,0.4,0185*74
$GPGGA,111008.50,5521.86737559,N,01025.88436938,E,4,11,1.1,15.241,M,44.043,M,0.5,0185*74
$GPGGA,111008.55,5521.86737517,N,01025.88437126,E,4,11,1.1,15.245,M,44.043,M,0.6,0185*7A
$GPGGA,111008.60,5521.86737815,N,01025.88436642,E,4,11,1.1,15.228,M,44.043,M,0.6,0185*7C
$GPGGA,111008.65,5521.86737603,N,01025.88437134,E,4,11,1.1,15.250,M,44.043,M,0.6,0185*78
$GPGGA,111008.70,5521.86737730,N,01025.88436531,E,4,11,1.1,15.231,M,44.043,M,0.7,0185*7B
$GPGGA,111008.75,5521.86737833,N,01025.88436427,E,4,11,1.1,15.226,M,44.043,M,0.8,0185*7D
$GPGGA,111008.80,5521.86737940,N,01025.88436354,E,4,11,1.1,15.226,M,44.043,M,0.8,0185*71
$GPGGA,111008.85,5521.86737674,N,01025.88437083,E,4,11,1.1,15.243,M,44.043,M,0.9,0185*76
$GPGGA,111008.90,5521.86737681,N,01025.88437190,E,4,11,1.1,15.236,M,44.043,M,0.9,0185*79
$GPGGA,111008.95,5521.86737618,N,01025.88436989,E,4,11,1.1,15.238,M,44.043,M,0.9,0185*73
$GPGGA,111009.00,5521.86738011,N,01025.88436425,E,4,11,1.1,15.216,M,44.043,M,1.0,0185*71
$GPGGA,111009.05,5521.86738346,N,01025.88436790,E,4,11,1.1,15.214,M,44.043,M,1.0,0185*7A
$GPGGA,111009.10,5521.86738058,N,01025.88436438,E,4,11,1.1,15.217,M,44.043,M,1.1,0185*71
$GPGGA,111009.15,5521.86738093,N,01025.88436472,E,4,11,1.1,15.212,M,44.043,M,1.1,0185*78
$GPGGA,111009.20,5521.86738065,N,01025.88436669,E,4,11,1.1,15.220,M,44.043,M,1.2,0185*7D
$GPGGA,111009.25,5521.86737891,N,01025.88436738,E,4,11,1.1,15.229,M,44.043,M,1.3,0185*79
$GPGGA,111009.30,5521.86737930,N,01025.88436503,E,4,11,1.1,15.215,M,44.043,M,1.3,0185*72
$GPGGA,111009.35,5521.86737856,N,01025.88436561,E,4,11,1.1,15.229,M,44.043,M,0.3,0185*7C
$GPGGA,111009.40,5521.86738005,N,01025.88436684,E,4,11,1.1,15.236,M,44.043,M,0.4,0185*7E
$GPGGA,111009.45,5521.86737893,N,01025.88436739,E,4,11,1.1,15.242,M,44.043,M,0.4,0185*77
$GPGGA,111009.50,5521.86737945,N,01025.88436548,E,4,11,1.1,15.239,M,44.043,M,0.5,0185*70
$GPGGA,111009.55,5521.86738082,N,01025.88436713,E,4,11,1.1,15.242,M,44.043,M,0.6,0185*7B
$GPGGA,111009.60,5521.86738051,N,01025.88436937,E,4,11,1.1,15.234,M,44.043,M,0.6,0185*7A
$GPGGA,111009.65,5521.86738070,N,01025.88436755,E,4,11,1.1,15.235,M,44.043,M,0.6,0185*77
$GPGGA,111009.70,5521.86737858,N,01025.88436695,E,4,11,1.1,15.234,M,44.043,M,0.7,0185*73
$GPGGA,111009.75,5521.86737931,N,01025.88436689,E,4,11,1.1,15.237,M,44.043,M,0.8,0185*79
$GPGGA,111009.80,5521.86738085,N,01025.88436760,E,4,11,1.1,15.239,M,44.043,M,0.8,0185*72
$GPGGA,111009.85,5521.86738094,N,01025.88436695,E,4,11,1.1,15.236,M,44.043,M,0.9,0185*72
